[{"ID": "15001", "Name": "Plac Dominika\u0144ski (Galeria Dominika\u0144ska)", "BikesAvailable": 7, "latitude": 51.108004, "longitude": 17.039528}, {"ID": "15002", "Name": "Dworzec G\u0142\u00f3wny, po\u0142udnie", "BikesAvailable": 2, "latitude": 51.097108, "longitude": 17.03611}, {"ID": "15003", "Name": "Rynek", "BikesAvailable": 8, "latitude": 51.109782, "longitude": 17.030175}, {"ID": "15004", "Name": "Dworzec G\u0142\u00f3wny", "BikesAvailable": 1, "latitude": 51.09975, "longitude": 17.036228}, {"ID": "15005", "Name": "Nowowiejska / Jedno\u015bci Narodowej", "BikesAvailable": 9, "latitude": 51.124879, "longitude": 17.045844}, {"ID": "15006", "Name": "Legnicka / Wejherowska", "BikesAvailable": 3, "latitude": 51.125276, "longitude": 16.984447}, {"ID": "15007", "Name": "Rondo Reagana", "BikesAvailable": 7, "latitude": 51.112154, "longitude": 17.060451}, {"ID": "15008", "Name": "Pereca / Grabiszy\u0144ska", "BikesAvailable": 1, "latitude": 51.100862, "longitude": 17.008224}, {"ID": "15009", "Name": "Powsta\u0144cow \u015al\u0105skich / Aleja Hallera", "BikesAvailable": 4, "latitude": 51.086689, "longitude": 17.01248}, {"ID": "15010", "Name": "Grabiszy\u0144ska / Aleja Hallera", "BikesAvailable": 5, "latitude": 51.094413, "longitude": 16.980911}, {"ID": "15011", "Name": "Szcz\u0119\u015bliwa (Sky Tower)", "BikesAvailable": 23, "latitude": 51.094521, "longitude": 17.020876}, {"ID": "15012", "Name": "\u015arubowa / Strzegomska", "BikesAvailable": 5, "latitude": 51.112911, "longitude": 17.00136}, {"ID": "15013", "Name": "Na Grobli (PWr - Geocentrum)", "BikesAvailable": 3, "latitude": 51.105207, "longitude": 17.053675}, {"ID": "15014", "Name": "Lotnicza / Na Ostatnim Groszu", "BikesAvailable": 7, "latitude": 51.126907, "longitude": 16.978759}, {"ID": "15015", "Name": "Dyrekcyjna / Borowska (Wroclavia)", "BikesAvailable": 2, "latitude": 51.095322, "longitude": 17.033388}, {"ID": "15016", "Name": "Borowska / Kamienna (Aquapark)", "BikesAvailable": 5, "latitude": 51.088908, "longitude": 17.034051}, {"ID": "15017", "Name": "Wyszy\u0144skiego / Szczytnicka", "BikesAvailable": 5, "latitude": 51.113562, "longitude": 17.050674}, {"ID": "15018", "Name": "Cha\u0142ubi\u0144skiego / Mikulicza-Radeckiego", "BikesAvailable": 2, "latitude": 51.111356, "longitude": 17.067636}, {"ID": "15019", "Name": "Borowska (Uniw. Szpital Kliniczny)", "BikesAvailable": 16, "latitude": 51.074868, "longitude": 17.032457}, {"ID": "15020", "Name": "Legnicka (Park Magnolia)", "BikesAvailable": 14, "latitude": 51.121059, "longitude": 16.993088}, {"ID": "15022", "Name": "Jagie\u0142\u0142y / Dmowskiego", "BikesAvailable": 3, "latitude": 51.116596, "longitude": 17.023879}, {"ID": "15023", "Name": "Plac Powsta\u0144c\u00f3w \u015al\u0105skich", "BikesAvailable": 7, "latitude": 51.091457, "longitude": 17.017405}, {"ID": "15024", "Name": "Wr\u00f3blewskiego (ZOO)", "BikesAvailable": 7, "latitude": 51.10592, "longitude": 17.075857}, {"ID": "15025", "Name": "\u015al\u0119\u017cna / Aleja Wi\u015bniowa", "BikesAvailable": 6, "latitude": 51.084239, "longitude": 17.02439}, {"ID": "15026", "Name": "Tyrmanda / Mi\u0144ska", "BikesAvailable": 5, "latitude": 51.103216, "longitude": 16.9461}, {"ID": "15027", "Name": "Janiszewskiego (PWr)", "BikesAvailable": 24, "latitude": 51.109332, "longitude": 17.060511}, {"ID": "15028", "Name": "Norwida / Wyspia\u0144skiego (PWr)", "BikesAvailable": 13, "latitude": 51.107235, "longitude": 17.060715}, {"ID": "15029", "Name": "Plac \u015awi\u0119tego Macieja / Trzebnicka", "BikesAvailable": 0, "latitude": 51.120474, "longitude": 17.036641}, {"ID": "15030", "Name": "Mi\u0144ska / Stanis\u0142awowska", "BikesAvailable": 9, "latitude": 51.099401, "longitude": 16.941016}, {"ID": "15031", "Name": "Oty\u0144ska / Traktatowa", "BikesAvailable": 2, "latitude": 51.112322, "longitude": 16.973556}, {"ID": "15032", "Name": "Wita Stwosza / Szewska", "BikesAvailable": 15, "latitude": 51.110274, "longitude": 17.034912}, {"ID": "15033", "Name": "Plac Ko\u015bciuszki (Renoma)", "BikesAvailable": 5, "latitude": 51.103354, "longitude": 17.030704}, {"ID": "15034", "Name": "Plac Jana Paw\u0142a II (Akademia Muzyczna)", "BikesAvailable": 5, "latitude": 51.111489, "longitude": 17.020981}, {"ID": "15035", "Name": "Plac Uniwersytecki (UWr)", "BikesAvailable": 6, "latitude": 51.113871, "longitude": 17.034484}, {"ID": "15036", "Name": "Fabryczna / Wagonowa", "BikesAvailable": 10, "latitude": 51.112726, "longitude": 16.988762}, {"ID": "15037", "Name": "Plac Legion\u00f3w", "BikesAvailable": 0, "latitude": 51.104413, "longitude": 17.022536}, {"ID": "15038", "Name": "\u015awidnicka / Pi\u0142sudskiego (Hotel Scandic)", "BikesAvailable": 6, "latitude": 51.101319, "longitude": 17.028535}, {"ID": "15039", "Name": "Ko\u015bciuszki / Pu\u0142askiego", "BikesAvailable": 1, "latitude": 51.1004, "longitude": 17.045083}, {"ID": "15040", "Name": "Plac Powsta\u0144c\u00f3w Warszawy (Muzeum Narodowe)", "BikesAvailable": 3, "latitude": 51.110001, "longitude": 17.047736}, {"ID": "15041", "Name": "Ko\u015bciuszki / Komuny Paryskiej / Zgodna", "BikesAvailable": 1, "latitude": 51.098959, "longitude": 17.051519}, {"ID": "15042", "Name": "Traugutta / Pu\u0142askiego", "BikesAvailable": 2, "latitude": 51.104571, "longitude": 17.048102}, {"ID": "15043", "Name": "Stacyjna (Dworzec Miko\u0142aj\u00f3w)", "BikesAvailable": 3, "latitude": 51.115354, "longitude": 16.998732}, {"ID": "15044", "Name": "Plac Strzegomski / Pozna\u0144ska", "BikesAvailable": 0, "latitude": 51.113703, "longitude": 17.006287}, {"ID": "15045", "Name": "Zachodnia / Pozna\u0144ska", "BikesAvailable": 4, "latitude": 51.117668, "longitude": 17.007137}, {"ID": "15046", "Name": "Drobnera / Dubois", "BikesAvailable": 11, "latitude": 51.117032, "longitude": 17.033499}, {"ID": "15047", "Name": "Magellana", "BikesAvailable": 5, "latitude": 51.121308, "longitude": 17.043077}, {"ID": "15048", "Name": "Nowowiejska / Wyszy\u0144skiego", "BikesAvailable": 8, "latitude": 51.122424, "longitude": 17.052013}, {"ID": "15049", "Name": "Wroc\u0142aw \u017berniki", "BikesAvailable": 5, "latitude": 51.12566, "longitude": 17.050463}, {"ID": "15050", "Name": "Mi\u0119dzyrzecka", "BikesAvailable": 1, "latitude": 51.122313, "longitude": 17.047515}, {"ID": "15051", "Name": "Radosna/Brzozowa", "BikesAvailable": 1, "latitude": 51.110662, "longitude": 17.052712}, {"ID": "15052", "Name": "Sienkiewicza / Piastowska", "BikesAvailable": 3, "latitude": 51.115564, "longitude": 17.060704}, {"ID": "15053", "Name": "Sienkiewicza / Wyszy\u0144skiego", "BikesAvailable": 4, "latitude": 51.116822, "longitude": 17.051845}, {"ID": "15054", "Name": "Plac Grunwaldzki / Polaka", "BikesAvailable": 6, "latitude": 51.110415, "longitude": 17.055591}, {"ID": "15055", "Name": "Wr\u00f3blewskiego (Teki)", "BikesAvailable": 7, "latitude": 51.10411, "longitude": 17.084711}, {"ID": "15056", "Name": "Komandorska / Sanocka", "BikesAvailable": 2, "latitude": 51.094653, "longitude": 17.026775}, {"ID": "15057", "Name": "\u015al\u0119\u017cna / Kamienna (Uniw. Ekonomiczny)", "BikesAvailable": 13, "latitude": 51.089842, "longitude": 17.028225}, {"ID": "15058", "Name": "Opor\u00f3w (p\u0119tla tramwajowa)", "BikesAvailable": 5, "latitude": 51.08451, "longitude": 16.97223}, {"ID": "15059", "Name": "Zaporoska / Gajowicka", "BikesAvailable": 1, "latitude": 51.097209, "longitude": 17.013967}, {"ID": "15060", "Name": "Traugutta / Ko\u015bciuszki", "BikesAvailable": 1, "latitude": 51.097147, "longitude": 17.056251}, {"ID": "15061", "Name": "Nowowiejska / G\u00f3rnickiego", "BikesAvailable": 6, "latitude": 51.119311, "longitude": 17.056784}, {"ID": "15062", "Name": "Plac Grunwaldzki (DS O\u0142\u00f3wek)", "BikesAvailable": 14, "latitude": 51.113912, "longitude": 17.067207}, {"ID": "15063", "Name": "Zaporoska / Grabiszy\u0144ska", "BikesAvailable": 13, "latitude": 51.102117, "longitude": 17.013683}, {"ID": "15064", "Name": "Grabiszy\u0144ska / Stalowa", "BikesAvailable": 7, "latitude": 51.099354, "longitude": 17.000697}, {"ID": "15065", "Name": "Krucza / Mielecka / Stalowa", "BikesAvailable": 6, "latitude": 51.093426, "longitude": 17.002893}, {"ID": "15066", "Name": "Aleja Hallera / Mielecka", "BikesAvailable": 3, "latitude": 51.089315, "longitude": 17.001501}, {"ID": "15067", "Name": "Grochowa / Jemio\u0142owa", "BikesAvailable": 2, "latitude": 51.095597, "longitude": 17.008045}, {"ID": "15069", "Name": "Legnicka / M\u0142odych Technik\u00f3w", "BikesAvailable": 8, "latitude": 51.113141, "longitude": 17.012175}, {"ID": "15070", "Name": "\u017belazna / Pereca", "BikesAvailable": 3, "latitude": 51.098027, "longitude": 17.006977}, {"ID": "15072", "Name": "Szewska / Kazimierza Wielkiego", "BikesAvailable": 11, "latitude": 51.107494, "longitude": 17.033344}, {"ID": "15073", "Name": "Na Ostatnim Groszu", "BikesAvailable": 4, "latitude": 51.122636, "longitude": 16.975708}, {"ID": "15074", "Name": "Grabiszy\u0144ska / Magazynierska (Corte Verona)", "BikesAvailable": 7, "latitude": 51.096659, "longitude": 16.988566}, {"ID": "15075", "Name": "Legnicka / Zachodnia", "BikesAvailable": 10, "latitude": 51.117155, "longitude": 17.000368}, {"ID": "15076", "Name": "Robotnicza / Fabryczna", "BikesAvailable": 16, "latitude": 51.112387, "longitude": 16.993157}, {"ID": "15078", "Name": "\u0141ukasiewicza / Smoluchowskiego (PWr)", "BikesAvailable": 3, "latitude": 51.108288, "longitude": 17.064884}, {"ID": "15079", "Name": "Kazimierza Wielkiego (Helios)", "BikesAvailable": 15, "latitude": 51.110342, "longitude": 17.02601}, {"ID": "15080", "Name": "Drobnera / Plac Bema", "BikesAvailable": 1, "latitude": 51.117557, "longitude": 17.040967}, {"ID": "15081", "Name": "Krzywoustego - Rynek Psie Pole", "BikesAvailable": 8, "latitude": 51.147339, "longitude": 17.11452}, {"ID": "15082", "Name": "Pilczycka / Kozanowska", "BikesAvailable": 11, "latitude": 51.13699, "longitude": 16.966199}, {"ID": "15083", "Name": "Aleja Kromera", "BikesAvailable": 8, "latitude": 51.132259, "longitude": 17.065453}, {"ID": "15084", "Name": "Le\u015bnica - p\u0119tla tramwajowa", "BikesAvailable": 5, "latitude": 51.14502, "longitude": 16.872364}, {"ID": "15085", "Name": "Krzycka / Aleja Karkonoska (Park Po\u0142udniowy)", "BikesAvailable": 8, "latitude": 51.074992, "longitude": 17.007058}, {"ID": "15086", "Name": "Mo\u015bcickiego (stacja kolejowa)", "BikesAvailable": 9, "latitude": 51.063834, "longitude": 17.083366}, {"ID": "15094", "Name": "\u017bmigrodzka / Broniewskiego", "BikesAvailable": 1, "latitude": 51.136111, "longitude": 17.036262}, {"ID": "15087", "Name": "Zwyci\u0119ska / O\u0142taszy\u0144ska", "BikesAvailable": 14, "latitude": 51.059458, "longitude": 17.006542}, {"ID": "15088", "Name": "Strzegomska / Esto\u0144ska", "BikesAvailable": 5, "latitude": 51.111874, "longitude": 16.960692}, {"ID": "15089", "Name": "\u015awieradowska (Ferio Gaj\u00a0)", "BikesAvailable": 4, "latitude": 51.07692, "longitude": 17.041439}, {"ID": "15090", "Name": "Wa\u0142brzyska - p\u0119tla tramwajowa", "BikesAvailable": 7, "latitude": 51.065777, "longitude": 16.988575}, {"ID": "15091", "Name": "Buforowa - Vivaldiego", "BikesAvailable": 7, "latitude": 51.051546, "longitude": 17.059094}, {"ID": "15092", "Name": "Pilczycka (Stadion Miejski)", "BikesAvailable": 8, "latitude": 51.143633, "longitude": 16.950712}, {"ID": "15093", "Name": "Bardzka / Pi\u0119kna", "BikesAvailable": 1, "latitude": 51.085034, "longitude": 17.04932}, {"ID": "15095", "Name": "Tyrmanda / Trawowa", "BikesAvailable": 11, "latitude": 51.100211, "longitude": 16.951602}, {"ID": "15096", "Name": "Zatorska / Kr\u00f3lewska - p\u0119tla MPK", "BikesAvailable": 4, "latitude": 51.160332, "longitude": 17.133683}, {"ID": "15097", "Name": "Marca Polo (Olimpia Port)", "BikesAvailable": 9, "latitude": 51.110299, "longitude": 17.117854}, {"ID": "15098", "Name": "Osobowicka - p\u0119tla tramwajowa", "BikesAvailable": 6, "latitude": 51.137856, "longitude": 16.994273}, {"ID": "15099", "Name": "Waniliowa / Cynamonowa", "BikesAvailable": 15, "latitude": 51.17592, "longitude": 16.998482}, {"ID": "15100", "Name": "\u017bernicka", "BikesAvailable": 5, "latitude": 51.123237, "longitude": 16.924321}, {"ID": "15252", "Name": "Centrum Handlowe Auchan Bielany", "BikesAvailable": 11, "latitude": 51.052723, "longitude": 16.968801}, {"ID": "15253", "Name": "Aleja Bielany", "BikesAvailable": 10, "latitude": 51.048391, "longitude": 16.961699}, {"ID": "15101", "Name": "Obornicka / Ba\u0142tycka", "BikesAvailable": 3, "latitude": 51.136786, "longitude": 17.030368}, {"ID": "15102", "Name": "Berenta / Kasprowicza", "BikesAvailable": 5, "latitude": 51.138463, "longitude": 17.059804}, {"ID": "15103", "Name": "Kraszewskiego / Trzebnicka", "BikesAvailable": 5, "latitude": 51.12843, "longitude": 17.0363}, {"ID": "15104", "Name": "Grota-Roweckiego / Parafialna", "BikesAvailable": 2, "latitude": 51.06277, "longitude": 17.0321}, {"ID": "15105", "Name": "\u015awieradowska / Krynicka", "BikesAvailable": 7, "latitude": 51.077147, "longitude": 17.046785}, {"ID": "15106", "Name": "Krzywoustego / Korona", "BikesAvailable": 12, "latitude": 51.14035, "longitude": 17.08494}, {"ID": "15107", "Name": "Rogowska / Zemska", "BikesAvailable": 0, "latitude": 51.11869, "longitude": 16.95336}, {"ID": "15108", "Name": "Hermanowska / Ko\u0142obrzeska", "BikesAvailable": 9, "latitude": 51.12353, "longitude": 16.95059}, {"ID": "15109", "Name": "Solskiego / al. Piast\u00f3w", "BikesAvailable": 5, "latitude": 51.0775, "longitude": 16.96396}, {"ID": "15110", "Name": "Czekoladowa / Wa\u0142brzyska", "BikesAvailable": 0, "latitude": 51.06404, "longitude": 16.97753}, {"ID": "15111", "Name": "Tarnogajska / Klimasa", "BikesAvailable": 1, "latitude": 51.08015, "longitude": 17.06228}, {"ID": "15112", "Name": "Opolska / p\u0119tla tramwajowa", "BikesAvailable": 7, "latitude": 51.07748, "longitude": 17.08405}, {"ID": "15113", "Name": "Graniczna / Strzegomska", "BikesAvailable": 3, "latitude": 51.10702, "longitude": 16.94971}, {"ID": "15114", "Name": "\u017bmigrodzka / Marino", "BikesAvailable": 0, "latitude": 51.15013, "longitude": 17.02903}, {"ID": "15115", "Name": "Kutrzeby / Hubala", "BikesAvailable": 0, "latitude": 51.056727, "longitude": 17.022121}, {"ID": "15116", "Name": "Zwyci\u0119ska / Agrestowa", "BikesAvailable": 4, "latitude": 51.0586, "longitude": 17.01411}, {"ID": "15117", "Name": "al. Karkonoska / Je\u017adziecka", "BikesAvailable": 9, "latitude": 51.061472, "longitude": 16.997531}, {"ID": "15118", "Name": "\u015al\u0119\u017cna / Skierniewicka", "BikesAvailable": 1, "latitude": 51.07708, "longitude": 17.01824}, {"ID": "15119", "Name": "Strzegomska / Rogowska", "BikesAvailable": 2, "latitude": 51.11059, "longitude": 16.95514}, {"ID": "15120", "Name": "Karwi\u0144ska / Opolska", "BikesAvailable": 6, "latitude": 51.08149, "longitude": 17.07693}, {"ID": "15121", "Name": "Reymonta / Kleczkowska", "BikesAvailable": 4, "latitude": 51.12695, "longitude": 17.02804}, {"ID": "15122", "Name": "M\u0142odych Technik\u00f3w", "BikesAvailable": 12, "latitude": 51.118899, "longitude": 17.013477}, {"ID": "15123", "Name": "Popowicka / Nied\u017awiedzia", "BikesAvailable": 0, "latitude": 51.1253, "longitude": 16.997218}, {"ID": "15124", "Name": "Lotnicza / Metalowc\u00f3w", "BikesAvailable": 5, "latitude": 51.13258, "longitude": 16.95697}, {"ID": "15125", "Name": "Zaporoska / Wielka / Krucza", "BikesAvailable": 14, "latitude": 51.09431, "longitude": 17.01479}, {"ID": "15126", "Name": "Ma\u015blicka / Stodolna", "BikesAvailable": 6, "latitude": 51.15755, "longitude": 16.92781}, {"ID": "15127", "Name": "Bystrzycka / Idzikowskiego", "BikesAvailable": 0, "latitude": 51.12658, "longitude": 16.95499}, {"ID": "15128", "Name": "al. Kochanowskiego / \u015aniadeckich", "BikesAvailable": 3, "latitude": 51.120068, "longitude": 17.077684}, {"ID": "15129", "Name": "al. Br\u00fccknera / Kwidzy\u0144ska", "BikesAvailable": 3, "latitude": 51.13198, "longitude": 17.07945}, {"ID": "15130", "Name": "Kozanowska / Pilczycka", "BikesAvailable": 1, "latitude": 51.13252, "longitude": 16.97377}, {"ID": "15131", "Name": "Pilczycka / Koszykarska", "BikesAvailable": 7, "latitude": 51.140713, "longitude": 16.958199}, {"ID": "15132", "Name": "al. Jana III Sobieskiego / stacja kolejowa", "BikesAvailable": 3, "latitude": 51.150227, "longitude": 17.118549}, {"ID": "15133", "Name": "Kamie\u0144skiego / Jutrosi\u0144ska", "BikesAvailable": 2, "latitude": 51.147082, "longitude": 17.042321}, {"ID": "15134", "Name": "Semaforowa", "BikesAvailable": 0, "latitude": 51.05927, "longitude": 17.07877}, {"ID": "15135", "Name": "Olszewskiego / Sp\u00f3\u0142dzielcza", "BikesAvailable": 12, "latitude": 51.10209, "longitude": 17.10168}, {"ID": "15136", "Name": "Olszewskiego, p\u0119tla tramwajowa", "BikesAvailable": 0, "latitude": 51.101428, "longitude": 17.108523}, {"ID": "15137", "Name": "Bacciarellego", "BikesAvailable": 8, "latitude": 51.105578, "longitude": 17.111316}, {"ID": "15138", "Name": "al. Kochanowskiego / Kopernika", "BikesAvailable": 10, "latitude": 51.11514, "longitude": 17.07436}, {"ID": "15139", "Name": "Ba\u0142tycka / \u017bmigrodzka", "BikesAvailable": 4, "latitude": 51.13959, "longitude": 17.03216}, {"ID": "15140", "Name": "Bezpieczna / Obornicka", "BikesAvailable": 3, "latitude": 51.14156, "longitude": 17.02587}, {"ID": "15141", "Name": "Drzewieckiego / Dedala", "BikesAvailable": 14, "latitude": 51.125652, "longitude": 16.968627}, {"ID": "15142", "Name": "\u015al\u0119\u017cna / p\u0119tla tramwajowa", "BikesAvailable": 3, "latitude": 51.072302, "longitude": 17.012384}, {"ID": "15143", "Name": "Mo\u015bcickiego / Chi\u0144ska", "BikesAvailable": 12, "latitude": 51.05909, "longitude": 17.08687}, {"ID": "15144", "Name": "Krakowska / Leroy Merlin", "BikesAvailable": 11, "latitude": 51.09053, "longitude": 17.06373}, {"ID": "15145", "Name": "Koszarowa / UWr", "BikesAvailable": 4, "latitude": 51.14128, "longitude": 17.06613}, {"ID": "15146", "Name": "So\u0142tysowicka / Redycka", "BikesAvailable": 6, "latitude": 51.14905, "longitude": 17.07565}, {"ID": "15147", "Name": "al. Poprzeczna / stacja kolejowa", "BikesAvailable": 3, "latitude": 51.143302, "longitude": 17.08146}, {"ID": "15148", "Name": "Przyja\u017ani / Karkonoska", "BikesAvailable": 2, "latitude": 51.06841, "longitude": 17.00399}, {"ID": "15149", "Name": "Przyja\u017ani", "BikesAvailable": 13, "latitude": 51.06667, "longitude": 16.99435}, {"ID": "15150", "Name": "Konduktorska", "BikesAvailable": 4, "latitude": 51.06628, "longitude": 17.05825}, {"ID": "15151", "Name": "Jerzmanowska", "BikesAvailable": 6, "latitude": 51.120913, "longitude": 16.876257}, {"ID": "15152", "Name": "Nyska / Pi\u0119kna", "BikesAvailable": 4, "latitude": 51.08537, "longitude": 17.0568}, {"ID": "15153", "Name": "pl. Powsta\u0144c\u00f3w Wielkopolskich", "BikesAvailable": 4, "latitude": 51.12469, "longitude": 17.03488}, {"ID": "15154", "Name": "pl. Strzelecki", "BikesAvailable": 3, "latitude": 51.12266, "longitude": 17.02995}, {"ID": "15155", "Name": "Jerzmanowska / Adamczewskich", "BikesAvailable": 4, "latitude": 51.12814, "longitude": 17.05477}, {"ID": "15156", "Name": "Mickiewicza / p\u0119tla tramwajowa", "BikesAvailable": 5, "latitude": 51.11397, "longitude": 17.10395}, {"ID": "15157", "Name": "al. Armii Krajowej / Borowska", "BikesAvailable": 10, "latitude": 51.08361, "longitude": 17.03523}, {"ID": "15158", "Name": "Gliniana / Gajowa", "BikesAvailable": 0, "latitude": 51.09152, "longitude": 17.04033}, {"ID": "15159", "Name": "Kamienna / Tomaszowska", "BikesAvailable": 4, "latitude": 51.087764, "longitude": 17.039318}, {"ID": "15160", "Name": "al. Armii Krajowej / Bardzka", "BikesAvailable": 11, "latitude": 51.08283, "longitude": 17.04824}, {"ID": "15161", "Name": "Hallera / Odkrywc\u00f3w", "BikesAvailable": 5, "latitude": 51.09126, "longitude": 16.98581}, {"ID": "15162", "Name": "Skarbowc\u00f3w / Wietrzna", "BikesAvailable": 2, "latitude": 51.07329, "longitude": 16.99485}, {"ID": "15163", "Name": "Rac\u0142awicka / Rymarska", "BikesAvailable": 9, "latitude": 51.08022, "longitude": 16.99467}, {"ID": "15164", "Name": "Lotnicza / Bajana", "BikesAvailable": 5, "latitude": 51.13004, "longitude": 16.96605}, {"ID": "15165", "Name": "Strachoci\u0144ska / Wie\u015bniacza", "BikesAvailable": 10, "latitude": 51.10666, "longitude": 17.14298}, {"ID": "15166", "Name": "Ksi\u0119garska / Dekarska / Zdu\u0144ska", "BikesAvailable": 5, "latitude": 51.17759, "longitude": 17.01588}, {"ID": "15168", "Name": "Pi\u0119kna", "BikesAvailable": 1, "latitude": 51.08729, "longitude": 17.05115}, {"ID": "15169", "Name": "al. Armii Krajowej / Tarnogajska", "BikesAvailable": 2, "latitude": 51.083551, "longitude": 17.060519}, {"ID": "15170", "Name": "Prochowicka / Dolnobrzeska", "BikesAvailable": 7, "latitude": 51.15127, "longitude": 16.86564}, {"ID": "15171", "Name": "Boguszowska / Kosmonaut\u00f3w", "BikesAvailable": 0, "latitude": 51.14395, "longitude": 16.89012}, {"ID": "15172", "Name": "Popowicka / Rysia", "BikesAvailable": 7, "latitude": 51.127192, "longitude": 16.991832}, {"ID": "15173", "Name": "Kosmonaut\u00f3w / Glinianki / WUWA2", "BikesAvailable": 3, "latitude": 51.13884, "longitude": 16.93191}, {"ID": "15174", "Name": "Wilanowska", "BikesAvailable": 6, "latitude": 51.15509, "longitude": 17.13249}, {"ID": "15175", "Name": "Okulickiego", "BikesAvailable": 10, "latitude": 51.160517, "longitude": 17.12231}, {"ID": "15176", "Name": "Poleska / Litewska", "BikesAvailable": 9, "latitude": 51.142323, "longitude": 17.127246}, {"ID": "15177", "Name": "Bacciarellego / p\u0119tla autobusowa", "BikesAvailable": 14, "latitude": 51.10224, "longitude": 17.11645}, {"ID": "15178", "Name": "\u015aredzka / Dolnobrzeska", "BikesAvailable": 4, "latitude": 51.14597, "longitude": 16.86692}, {"ID": "15179", "Name": "Mi\u0142oszycka / Swojczycka", "BikesAvailable": 6, "latitude": 51.11464, "longitude": 17.13042}, {"ID": "15180", "Name": "Stab\u0142owicka / G\u0142\u00f3wna", "BikesAvailable": 11, "latitude": 51.16322, "longitude": 16.89648}, {"ID": "15181", "Name": "Wojanowska / Arbuzowa", "BikesAvailable": 18, "latitude": 51.15435, "longitude": 16.89888}, {"ID": "15182", "Name": "Osobowicka / Ostrowska", "BikesAvailable": 18, "latitude": 51.14382, "longitude": 16.98789}, {"ID": "15183", "Name": "Kie\u0142czowska", "BikesAvailable": 9, "latitude": 51.14574, "longitude": 17.13493}, {"ID": "15184", "Name": "Gorlicka / Litewska", "BikesAvailable": 3, "latitude": 51.141797, "longitude": 17.123711}, {"ID": "15185", "Name": "Kasprowicza / Syrokomli", "BikesAvailable": 3, "latitude": 51.137247, "longitude": 17.048546}, {"ID": "15186", "Name": "Paprotna / Obornicka, zajezdnia MPK", "BikesAvailable": 4, "latitude": 51.148528, "longitude": 17.020477}, {"ID": "15187", "Name": "Kosmonaut\u00f3w / Fieldorfa, szpital wojew\u00f3dzki", "BikesAvailable": 3, "latitude": 51.14221, "longitude": 16.90591}, {"ID": "15188", "Name": "Stab\u0142owicka", "BikesAvailable": 1, "latitude": 51.171074, "longitude": 16.902364}, {"ID": "15189", "Name": "Mr\u0105gowska / Rolna", "BikesAvailable": 2, "latitude": 51.149606, "longitude": 16.938033}, {"ID": "15190", "Name": "Partyzant\u00f3w / Okrzei", "BikesAvailable": 7, "latitude": 51.109457, "longitude": 17.097924}, {"ID": "15191", "Name": "Hubska / Prudnicka", "BikesAvailable": 1, "latitude": 51.089572, "longitude": 17.045321}, {"ID": "15192", "Name": "Jagodzi\u0144ska / Buforowa", "BikesAvailable": 5, "latitude": 51.058564, "longitude": 17.056696}, {"ID": "15193", "Name": "Ko\u0142\u0142\u0105taja / Podwale", "BikesAvailable": 5, "latitude": 51.103854, "longitude": 17.03678}, {"ID": "15194", "Name": "Opolska / Siemianowicka", "BikesAvailable": 2, "latitude": 51.071275, "longitude": 17.090906}, {"ID": "15195", "Name": "Piaskowa / \u015bw. Ducha", "BikesAvailable": 1, "latitude": 51.11289, "longitude": 17.03971}, {"ID": "15196", "Name": "Kleci\u0144ska / Du\u0144ska", "BikesAvailable": 1, "latitude": 51.109433, "longitude": 16.969097}, {"ID": "15197", "Name": "pl. Orl\u0105t Lwowskich", "BikesAvailable": 7, "latitude": 51.10823, "longitude": 17.02138}, {"ID": "15198", "Name": "Komandorska / Kamienna", "BikesAvailable": 3, "latitude": 51.09009, "longitude": 17.0235}, {"ID": "15199", "Name": "Wroc\u0142aw Stadion, stacja kolejowa", "BikesAvailable": 1, "latitude": 51.13707, "longitude": 16.94095}, {"ID": "15200", "Name": "Wroc\u0142aw Le\u015bnica, stacja kolejowa", "BikesAvailable": 4, "latitude": 51.14323, "longitude": 16.86627}, {"ID": "15255", "Name": "Grota-Roweckiego/Iwaszkiewicza", "BikesAvailable": 0, "latitude": 51.05687, "longitude": 17.03236}, {"ID": "15256", "Name": "Kowalska/Lechit\u00f3w", "BikesAvailable": 2, "latitude": 51.13197, "longitude": 17.11071}, {"ID": "15257", "Name": "Kamie\u0144skiego", "BikesAvailable": 3, "latitude": 51.15472, "longitude": 17.04376}, {"ID": "15258", "Name": "Lubelska/\u0141ukowska", "BikesAvailable": 5, "latitude": 51.165419, "longitude": 16.920266}, {"ID": "15259", "Name": "Kwidzy\u0144ska p\u0119tla", "BikesAvailable": 13, "latitude": 51.12776, "longitude": 17.10254}, {"ID": "15260", "Name": "Rakowiecka", "BikesAvailable": 4, "latitude": 51.09761, "longitude": 17.06855}, {"ID": "15263", "Name": "Kleci\u0144ska (Wroc\u0142aw Grabiszyn)", "BikesAvailable": 4, "latitude": 51.09724, "longitude": 16.97512}, {"ID": "15264", "Name": "Sukielicka / Rogowska", "BikesAvailable": 10, "latitude": 51.118185, "longitude": 16.946011}, {"ID": "15265", "Name": "Kozanowska/Pa\u0142ucka", "BikesAvailable": 4, "latitude": 51.13863, "longitude": 16.97735}, {"ID": "15266", "Name": "Pi\u0142awska", "BikesAvailable": 4, "latitude": 51.07236, "longitude": 17.04294}, {"ID": "15267", "Name": "Gorlicka/Stanety", "BikesAvailable": 3, "latitude": 51.14518, "longitude": 17.11679}, {"ID": "15268", "Name": "3M", "BikesAvailable": 2, "latitude": 51.1277, "longitude": 17.11456}, {"ID": "15269", "Name": "Gazowa / Mi\u0119dzyleska", "BikesAvailable": 9, "latitude": 51.07814, "longitude": 17.07026}, {"ID": "15270", "Name": "Bezpieczna/Jugos\u0142awia\u0144ska", "BikesAvailable": 9, "latitude": 51.13894, "longitude": 17.02028}, {"ID": "15271", "Name": "Pi\u0142sudskiego 13 od Jump Hall", "BikesAvailable": 1, "latitude": 51.1052, "longitude": 17.02123}, {"ID": "15273", "Name": "Oty\u0144ska", "BikesAvailable": 6, "latitude": 51.11251, "longitude": 16.978385}, {"ID": "15274", "Name": "Amazon WRO2", "BikesAvailable": 9, "latitude": 51.034956, "longitude": 16.950763}, {"ID": "15201", "Name": "Gajowicka", "BikesAvailable": 3, "latitude": 51.085656, "longitude": 17.00453}, {"ID": "15275", "Name": "Dalimira/P\u0119gowska", "BikesAvailable": 5, "latitude": 51.196906, "longitude": 16.974741}, {"ID": "15276", "Name": "Nowodworska/Strzegomska", "BikesAvailable": 4, "latitude": 51.114538, "longitude": 16.966035}, {"ID": "15278", "Name": "Kopyci\u0144skiego/Drabika", "BikesAvailable": 14, "latitude": 51.058262, "longitude": 17.052487}, {"ID": "15280", "Name": "Czarnuszkowa/Waniliowa", "BikesAvailable": 10, "latitude": 51.18079, "longitude": 16.999845}, {"ID": "15281", "Name": "Bierutowska", "BikesAvailable": 3, "latitude": 51.152216, "longitude": 17.13217}, {"ID": "15279", "Name": "Ziemniaczana/Boiskowa", "BikesAvailable": 3, "latitude": 51.047299, "longitude": 17.091358}, {"ID": "15282", "Name": "Lekarska/\u017bmigrodzka", "BikesAvailable": 8, "latitude": 51.161667, "longitude": 17.027766}, {"ID": "15283", "Name": "Starod\u0119bowa (Wroc\u0142aw Paw\u0142owice)", "BikesAvailable": 6, "latitude": 51.168502, "longitude": 17.109124}, {"ID": "15294", "Name": "Ibn Siny Awicenny (Wroc\u0142aw Zachodni)", "BikesAvailable": 0, "latitude": 51.090573, "longitude": 16.950684}, {"ID": "15295", "Name": "Grapowa", "BikesAvailable": 8, "latitude": 51.061535, "longitude": 17.065717}, {"ID": "15296", "Name": "Wroc\u0142aw Osobowice", "BikesAvailable": 9, "latitude": 51.166775, "longitude": 16.997604}, {"ID": "15302", "Name": "Bielany Wroc\u0142awskie Kolejowa P&R", "BikesAvailable": 4, "latitude": 51.03795, "longitude": 16.976374}, {"ID": "15303", "Name": "Wysoka Nastrojowa", "BikesAvailable": 4, "latitude": 51.052835, "longitude": 17.003956}, {"ID": "15261", "Name": "Powsta\u0144c\u00f3w \u015al\u0105skich/Orla", "BikesAvailable": 4, "latitude": 51.08, "longitude": 17.00773}, {"ID": "15308", "Name": "Boiskowa / Korea\u0144ska", "BikesAvailable": 3, "latitude": 51.04874, "longitude": 17.0832}, {"ID": "15309", "Name": "Magellana", "BikesAvailable": 0, "latitude": 51.109813, "longitude": 17.120592}, {"ID": "15310", "Name": "Jerzmanowska / Adamczewskich", "BikesAvailable": 7, "latitude": 51.12056, "longitude": 16.866329}, {"ID": "15311", "Name": "Jod\u0142owicka", "BikesAvailable": 7, "latitude": 51.16994, "longitude": 16.89701}, {"ID": "15312", "Name": "Wroc\u0142aw \u017berniki (stacja kolejowa)", "BikesAvailable": 4, "latitude": 51.126461, "longitude": 16.913849}, {"ID": "15313", "Name": "Mi\u0119dzyrzecka", "BikesAvailable": 2, "latitude": 51.09501, "longitude": 17.080458}]